City_ID,City,Lat,Lon,Temp Max,Humidity,Cloudiness,Wind Speed,Country,Date
0,mombaca,-5.7431,-39.6275,28.76,34,28,0.91,BR,1690754533
1,longkou,37.6508,120.3286,26.17,88,100,6.55,CN,1690754533
2,bluff,-46.6,168.3333,13.22,73,81,8.05,NZ,1690754534
3,ouahigouya,13.5828,-2.4216,31.58,48,64,3.59,BF,1690754534
4,chekhov,55.1431,37.4711,16.16,74,70,2.3,RU,1690754534
5,qarqin,37.4185,66.0436,29.95,18,0,4.23,AF,1690754535
6,new norfolk,-42.7826,147.0587,7.72,88,69,5.37,AU,1690754535
7,kapaa,22.0752,-159.319,29.18,74,75,3.6,US,1690754244
8,ushuaia,-54.8,-68.3,-0.19,80,75,3.09,AR,1690754410
9,port lincoln,-34.7333,135.8667,13.3,67,49,4.78,AU,1690754536
10,cherskiy,68.75,161.3,5.43,94,100,2.78,RU,1690754536
11,boffa,10.1667,-14.0333,25.28,94,100,0.67,GN,1690754245
12,avarua,-21.2078,-159.775,25.03,94,100,8.23,CK,1690754537
13,rikitea,-23.1203,-134.9692,20.61,67,83,10.81,PF,1690754246
14,sao filipe,14.8961,-24.4956,25.84,80,98,1.7,CV,1690754537
15,hermanus,-34.4187,19.2345,12.11,77,99,7.43,ZA,1690754537
16,albany,42.6001,-73.9662,24.13,58,81,1.34,US,1690754417
17,mayor pablo lagerenza,-19.9309,-60.7718,27.63,39,0,2.63,PY,1690754246
18,gat,31.61,34.7642,26.38,100,0,0.28,IL,1690754538
19,souillac,-20.5167,57.5167,21.21,73,20,1.03,MU,1690754538
20,geraldton,-28.7667,114.6,7.23,93,0,4.12,AU,1690754538
21,haines junction,60.7522,-137.5108,23.97,46,31,1.54,CA,1690754539
22,tessalit,20.1986,1.0114,37.04,15,42,1.64,ML,1690754539
23,hobart,-42.8794,147.3294,7.92,73,40,8.75,AU,1690754418
24,narsaq,60.9167,-46.05,13.12,68,48,2.59,GL,1690754539
25,saint-pierre,-21.3393,55.4781,18.82,59,0,5.14,RE,1690754248
26,port alfred,-33.5906,26.891,13.68,48,6,10.93,ZA,1690754540
27,demidov,55.2706,31.515,15.28,88,100,1.7,RU,1690754540
28,mahebourg,-20.4081,57.7,21.16,73,20,1.03,MU,1690754540
29,lucapa,-8.4192,20.7447,24.19,25,5,0.54,AO,1690754540
30,kombissiri,12.0656,-1.3375,28.99,70,78,3.97,BF,1690754249
31,nioro,13.35,-15.75,23.92,87,100,3.29,GM,1690754541
32,bredasdorp,-34.5322,20.0403,10.96,79,98,6.46,ZA,1690754541
33,nemuro,43.3236,145.575,19.19,88,100,6.01,JP,1690754251
34,butaritari,3.0707,172.7902,26.55,83,99,2.94,KI,1690754541
35,namibe,-15.1961,12.1522,16.69,74,1,1.85,AO,1690754542
36,curvelo,-18.7564,-44.4308,22.36,56,81,2.29,BR,1690754464
37,cape town,-33.9258,18.4232,13.38,81,75,7.2,ZA,1690754101
38,biskamzha,53.4497,89.5272,14.05,91,42,0.66,RU,1690754542
39,leshukonskoye,64.8989,45.7622,17.66,99,100,1.52,RU,1690754543
40,nikolskoye,59.7035,30.7861,18.22,82,63,1.21,RU,1690754543
41,kidal,18.4411,1.4078,37.76,18,52,2.06,ML,1690754543
42,torbay,47.6666,-52.7314,16.05,96,100,4.12,CA,1690754543
43,chuy,-33.6971,-53.4616,12.07,80,81,2.64,UY,1690754278
44,hudiksvall,61.729,17.1036,15.67,93,91,0.91,SE,1690754544
45,mataura,-46.1927,168.8643,13.04,83,19,2.0,NZ,1690754544
46,vaini,-21.2,-175.2,23.09,60,20,4.63,TO,1690754545
47,santa cruz,-17.8,-63.1667,28.7,51,0,6.17,BO,1690754411
48,hofn,64.2539,-15.2082,10.7,83,100,4.38,IS,1690754545
49,zyryanka,65.75,150.85,14.89,41,90,4.82,RU,1690754545
50,djougou,9.7085,1.666,22.78,91,87,1.64,BJ,1690754546
51,remedios,22.4947,-79.5458,29.95,71,23,4.92,CU,1690754546
52,jamestown,42.097,-79.2353,23.62,53,100,4.63,US,1690754255
53,gobabis,-22.45,18.9667,2.74,44,0,4.27,NA,1690754546
54,kismayo,-0.3582,42.5454,24.23,79,5,7.04,SO,1690754547
55,shagonar,51.5333,92.8,16.91,60,2,0.15,RU,1690754547
56,skjervoy,70.0311,20.9714,12.0,93,96,1.4,NO,1690754548
57,fortuna,40.5982,-124.1573,19.81,70,0,7.2,US,1690754548
58,oranjemund,-28.55,16.4333,10.69,72,0,5.08,NA,1690754548
59,san patricio,28.017,-97.5169,37.4,40,98,6.77,US,1690754548
60,tuktoyaktuk,69.4541,-133.0374,24.0,57,0,1.54,CA,1690754258
61,cockburn town,21.4612,-71.1419,30.98,66,40,4.63,TC,1690754549
62,guaraniacu,-25.1008,-52.8781,15.52,80,5,0.09,BR,1690754258
63,busselton,-33.65,115.3333,13.0,77,91,1.4,AU,1690754549
64,padang,-0.9492,100.3543,25.03,90,54,1.21,ID,1690754550
65,qaanaaq,77.484,-69.3632,5.69,81,100,3.63,GL,1690754550
66,bethel,41.3712,-73.414,26.46,52,0,5.14,US,1690754259
67,georgetown,5.4112,100.3354,24.99,91,40,1.03,MY,1690754360
68,chandler,33.3062,-111.8412,43.91,24,42,1.79,US,1690754259
69,half moon bay,37.4636,-122.4286,32.71,62,0,8.75,US,1690754460
70,arman,59.7,150.1667,12.79,88,100,1.09,RU,1690754551
71,tartus,34.889,35.8866,26.72,79,45,4.03,SY,1690754551
72,bathsheba,13.2167,-59.5167,29.34,79,20,3.6,BB,1690754551
73,iqaluit,63.7506,-68.5145,10.85,76,20,6.17,CA,1690754552
74,lagoa,39.05,-27.9833,23.38,91,99,5.13,PT,1690754552
75,eyemouth,55.8713,-2.0901,14.02,89,43,4.54,GB,1690754261
76,sitka,57.0531,-135.33,16.98,83,96,2.3,US,1690754553
77,axim,4.8699,-2.2405,24.42,92,85,2.93,GH,1690754553
78,vlasikha,53.2972,83.5742,17.47,88,75,3.0,RU,1690754553
79,asau,46.4333,26.4,18.51,95,87,1.31,RO,1690754553
80,hithadhoo,-0.6,73.0833,27.01,77,73,1.08,MV,1690754553
81,aberdeen,57.1437,-2.0981,15.27,90,9,1.03,GB,1690754554
82,pevek,69.7008,170.3133,2.34,97,100,1.7,RU,1690754262
83,ardakan,32.31,54.0175,31.93,13,60,1.46,IR,1690754554
84,soyo,-6.1349,12.3689,20.57,84,21,3.73,AO,1690754555
85,sur,22.5667,59.5289,32.42,58,3,5.28,OM,1690754555
86,hillsborough,37.5741,-122.3794,32.89,64,20,8.75,US,1690754538
87,amapa,1.0,-52.0,25.44,75,59,1.06,BR,1690754498
88,mayo,38.8876,-76.5119,30.63,60,0,2.24,US,1690754555
89,victoria,22.2855,114.1577,28.03,92,100,2.68,HK,1690753729
90,okhotsk,59.3833,143.3,12.94,96,100,5.25,RU,1690754264
91,karratha,-20.7377,116.8463,18.14,23,5,5.63,AU,1690754556
92,stantsionno-oyashinskiy,55.4664,83.8245,13.96,97,16,2.88,RU,1690754556
93,zhigansk,66.7697,123.3711,7.64,58,0,8.13,RU,1690754557
94,east london,-33.0153,27.9116,14.67,40,5,10.29,ZA,1690754557
95,dikson,73.5069,80.5464,2.28,97,100,6.32,RU,1690754557
96,puerto ayora,-0.7393,-90.3518,29.98,91,57,3.13,EC,1690754266
97,cidreira,-30.1811,-50.2056,14.69,81,69,2.7,BR,1690754266
98,avare,-23.0986,-48.9258,16.24,58,0,2.23,BR,1690754417
99,norman wells,65.282,-126.8329,24.02,50,40,2.57,CA,1690754558
100,caohai,26.8661,104.2841,14.94,96,75,1.83,CN,1690754266
101,vardo,70.3705,31.1107,8.99,100,100,2.57,NO,1690754559
102,cabo san lucas,22.8909,-109.9124,33.43,65,2,2.08,MX,1690754187
103,abu dhabi,24.4667,54.3667,34.97,59,0,0.51,AE,1690754352
104,carnarvon,-24.8667,113.6333,15.93,43,0,5.22,AU,1690754559
105,longyearbyen,78.2186,15.6401,7.91,71,75,3.09,SJ,1690754267
106,oil city,41.4339,-79.7064,24.67,60,0,2.06,US,1690754268
107,teguise,29.0605,-13.564,21.12,78,20,10.29,ES,1690754560
108,syracuse,37.0881,15.2792,24.65,72,0,0.43,IT,1690754560
109,khuzhir,53.1939,107.3397,15.25,85,100,0.99,RU,1690754560
110,saint-philippe,-21.3585,55.7679,18.77,74,35,4.68,RE,1690754560
111,kodiak,57.79,-152.4072,15.03,73,94,0.46,US,1690754561
112,aksarka,66.5606,67.7975,13.54,79,98,1.72,RU,1690754269
113,camacupa,-12.0167,17.4833,17.86,25,72,2.23,AO,1690754562
114,ust-nera,64.5667,143.2,9.44,84,100,3.54,RU,1690754562
115,sambava,-14.2667,50.1667,20.85,87,27,3.83,MG,1690754562
116,castro,-24.7911,-50.0119,11.99,83,0,1.38,BR,1690754563
117,avdiyivka,48.1399,37.7426,19.64,59,66,1.51,UA,1690754270
118,san cristobal,7.7669,-72.225,29.1,78,99,2.51,VE,1690754563
119,ilulissat,69.2167,-51.1,4.3,78,85,1.7,GL,1690754271
120,douglas,41.3,-96.167,29.48,60,100,3.6,US,1690754429
121,waingapu,-9.6567,120.2641,22.93,89,23,3.42,ID,1690754271
122,naze,28.3667,129.4833,26.51,94,100,11.4,JP,1690754564
123,moron,-34.6534,-58.6198,18.36,72,86,9.39,AR,1690754565
124,khasan,42.4308,130.6434,22.34,93,62,2.43,RU,1690754565
125,severo-kurilsk,50.6789,156.125,11.1,96,100,7.28,RU,1690754273
126,atuona,-9.8,-139.0333,26.33,73,2,9.69,PF,1690754566
127,ribeira grande,38.5167,-28.7,24.32,96,19,4.47,PT,1690754566
128,vostok,46.4856,135.8833,18.77,91,0,1.01,RU,1690754566
129,saldanha,-33.0117,17.9442,12.03,84,99,7.73,ZA,1690754567
130,richards bay,-28.783,32.0377,14.33,74,2,1.38,ZA,1690754436
131,barrow,71.2906,-156.7887,12.01,87,100,6.69,US,1690754274
132,sao jose da coroa grande,-8.8978,-35.1478,23.96,83,14,4.95,BR,1690754568
133,yar-sale,66.8333,70.8333,12.58,77,100,3.33,RU,1690754568
134,kieta,-6.2167,155.6333,26.34,85,100,1.39,PG,1690754275
135,guaraciaba do norte,-4.1669,-40.7475,25.34,35,40,0.63,BR,1690754568
136,west fargo,46.875,-96.9004,27.0,42,20,2.57,US,1690754482
137,ponta do sol,32.6667,-17.1,25.4,86,34,1.29,PT,1690754569
138,luderitz,-26.6481,15.1594,12.29,59,0,7.89,NA,1690754569
139,jalu,29.0331,21.5482,29.5,47,0,5.04,LY,1690754276
140,khatanga,71.9667,102.5,21.94,47,3,1.84,RU,1690754277
141,drayton valley,53.2168,-114.9854,23.48,68,8,3.67,CA,1690754570
142,yellowknife,62.456,-114.3525,25.29,50,75,4.63,CA,1690754430
143,agadez,19.75,10.25,32.02,17,0,0.16,NE,1690754570
144,albina,5.5,-54.05,25.15,93,43,2.14,SR,1690754571
145,saint-joseph,-21.3667,55.6167,18.21,72,22,4.95,RE,1690754571
146,imbituba,-28.24,-48.6703,15.19,87,3,4.93,BR,1690754571
147,yayva,59.3303,57.2641,16.21,73,0,3.12,RU,1690754571
148,mehamn,71.0357,27.8492,10.97,100,75,3.6,NO,1690754572
149,pisco,-13.7,-76.2167,21.03,68,75,6.17,PE,1690754341
150,byron bay,-28.65,153.6167,17.38,64,38,1.58,AU,1690754572
151,tasiilaq,65.6145,-37.6368,8.09,76,100,1.63,GL,1690754573
152,tuatapere,-46.1333,167.6833,10.95,81,77,3.76,NZ,1690754573
153,mwene-ditu,-7.0,23.45,24.73,28,9,2.1,CD,1690754573
154,mar del plata,-38.0023,-57.5575,15.01,66,0,2.06,AR,1690754402
155,opuwo,-18.0607,13.84,15.02,29,38,2.81,NA,1690754574
156,tocopilla,-22.092,-70.1979,20.24,65,12,3.07,CL,1690754574
157,bandarbeyla,9.4942,50.8122,24.3,83,35,12.81,SO,1690754574
158,broome,42.2506,-75.833,24.28,54,75,4.63,US,1690754574
159,qaqortoq,60.7167,-46.0333,7.36,77,55,1.85,GL,1690754575
160,abnub,27.2696,31.1511,31.12,26,0,4.53,EG,1690754575
161,punta arenas,-53.15,-70.9167,1.93,78,64,9.87,CL,1690754419
162,camacha,33.0833,-16.3333,21.68,83,40,3.6,PT,1690754538
163,niteroi,-22.8833,-43.1036,20.94,78,75,3.09,BR,1690754505
164,sisimiut,66.9395,-53.6735,5.12,85,92,2.35,GL,1690754576
165,faanui,-16.4833,-151.75,26.53,71,45,6.81,PF,1690754576
166,yulara,-25.2406,130.9889,13.87,75,1,4.53,AU,1690754576
167,ahipara,-35.1667,173.1667,11.01,71,0,1.36,NZ,1690754576
168,thompson,55.7435,-97.8558,20.09,77,100,1.54,CA,1690754577
169,ixtapa,20.7,-105.2,33.46,68,1,3.58,MX,1690754419
170,lavrentiya,65.5833,-171.0,7.61,97,100,3.62,RU,1690754577
171,bonavista,48.6499,-53.1147,12.19,98,100,5.56,CA,1690754577
172,namatanai,-3.6667,152.4333,26.94,82,96,2.86,PG,1690754578
173,svetlyy,54.675,20.1347,16.09,77,88,2.65,RU,1690754578
174,goderich,43.7501,-81.7165,22.17,68,51,5.14,CA,1690754458
175,arraial do cabo,-22.9661,-42.0278,19.92,77,75,2.06,BR,1690754578
176,nchelenge,-9.3451,28.734,19.66,44,39,2.53,ZM,1690754579
177,newport,51.5877,-2.9984,17.3,92,100,8.79,GB,1690754430
178,ventspils,57.3894,21.5606,13.96,100,40,0.51,LV,1690754579
179,malindi,-3.2175,40.1191,23.96,78,8,6.2,KE,1690754579
180,hilo,19.7297,-155.09,29.03,70,40,4.63,US,1690754322
181,pochutla,15.7432,-96.4661,27.39,73,100,1.54,MX,1690754580
182,bonthe,7.5264,-12.505,24.75,87,100,2.23,SL,1690754580
183,pemberton,50.3164,-122.8027,25.75,36,50,3.01,CA,1690754580
184,lebu,-37.6167,-73.65,12.85,91,100,2.77,CL,1690754581
185,bengkulu,-3.8004,102.2655,23.73,91,45,2.62,ID,1690754581
186,cap malheureux,-19.9842,57.6142,19.7,72,3,0.45,MU,1690754581
187,tiksi,71.6872,128.8694,2.72,88,57,3.57,RU,1690754582
188,quatre cocos,-20.2078,57.7625,21.06,81,6,6.02,MU,1690754582
189,abbeville,50.1,1.8333,18.61,79,99,7.13,FR,1690754434
190,gubkin,51.2817,37.5458,15.96,73,38,1.65,RU,1690754582
191,sao joao da barra,-21.6403,-41.0511,20.05,75,100,2.44,BR,1690754567
192,shar,49.5886,81.0453,21.65,72,29,2.39,KZ,1690754583
193,udachnyy,66.4167,112.4,15.25,44,35,4.25,RU,1690754583
194,flinders,-34.5833,150.8552,16.21,57,0,4.02,AU,1690754584
195,kaduqli,11.0167,29.7167,23.53,87,97,1.81,SD,1690754584
196,agua dulce,18.1333,-94.1333,28.65,76,77,5.65,MX,1690754584
197,sola,-13.8833,167.55,25.37,78,75,3.09,VU,1690754584
198,upernavik,72.7868,-56.1549,3.53,87,95,3.78,GL,1690754585
199,port elizabeth,-33.918,25.5701,12.28,50,0,6.17,ZA,1690754313
200,codrington,-38.2667,141.9667,10.21,83,56,5.32,AU,1690754586
201,heihe,50.2441,127.4902,19.32,66,31,1.16,CN,1690754586
202,barber,12.2833,-69.0667,30.99,74,20,6.17,CW,1690754586
203,fuyu,45.1833,124.8167,23.2,87,0,2.08,CN,1690754587
204,farsund,58.0948,6.8047,14.97,81,84,1.76,NO,1690754587
205,margate,51.3813,1.3862,17.17,89,100,3.58,GB,1690754587
206,marawi,7.9986,124.2928,20.46,88,97,2.22,PH,1690754588
207,gazojak,41.1875,61.4036,31.9,16,42,3.61,TM,1690754588
208,xinxiang,35.3089,113.8672,24.74,97,51,2.36,CN,1690754589
209,kahului,20.8947,-156.47,31.09,72,6,8.49,US,1690754527
210,jardim,-21.4803,-56.1381,24.78,45,0,0.68,BR,1690754507
211,pringsewu,-5.3582,104.9744,21.36,95,81,0.08,ID,1690754589
212,port keats,-14.25,129.55,20.38,57,33,3.43,AU,1690754590
213,rorvik,64.8621,11.2373,13.06,94,6,3.6,NO,1690754590
214,bondo,3.8146,23.6866,21.39,98,84,1.15,CD,1690754590
215,saint anthony,45.0205,-93.218,28.41,44,40,2.57,US,1690754385
216,lima,-12.0432,-77.0282,23.83,68,40,5.14,PE,1690754126
217,indramayu,-6.3264,108.32,23.09,72,28,4.36,ID,1690754591
218,korampallam,8.7667,78.1,27.39,64,90,7.29,IN,1690754433
219,kavieng,-2.5744,150.7967,27.77,74,100,3.38,PG,1690754591
220,andapa,-14.65,49.65,16.88,98,60,1.0,MG,1690754592
221,mangrol,21.1167,70.1167,27.04,86,89,8.45,IN,1690754592
222,los llanos de aridane,28.6585,-17.9182,21.86,78,0,6.17,ES,1690754592
223,comodoro rivadavia,-45.8667,-67.5,8.92,37,20,10.8,AR,1690754593
224,taoudenni,22.6783,-3.9836,40.64,14,59,3.82,ML,1690754593
225,roma,43.2128,-75.4557,23.65,57,98,2.71,US,1690754396
226,vilyuysk,63.7553,121.6247,13.45,51,0,2.87,RU,1690754593
227,constitucion,-35.3333,-72.4167,14.85,84,100,2.85,CL,1690754594
228,boguchany,58.3814,97.4531,17.19,99,100,2.45,RU,1690754595
229,ushtobe,45.2514,77.9838,24.17,27,0,4.53,KZ,1690754595
230,santa maria,-29.6842,-53.8069,16.61,82,0,2.06,BR,1690754595
231,marsa matruh,31.3525,27.2453,27.11,78,20,4.12,EG,1690754596
232,vestmanna,62.1564,-7.1664,11.51,87,100,2.06,FO,1690754596
233,airai,-8.9266,125.4092,12.27,42,77,1.75,TL,1690754596
234,kaeo,-35.1,173.7833,10.99,74,0,0.13,NZ,1690754596
235,marzuq,14.4,46.4667,28.05,45,93,2.22,YE,1690754597
236,olinda,-8.0089,-34.8553,25.85,78,20,7.2,BR,1690753988
237,talcahuano,-36.7167,-73.1167,14.82,82,0,3.09,CL,1690754415
238,novobiryusinskiy,56.9578,97.7076,14.42,98,68,1.77,RU,1690754597
239,mopipi,-21.1833,24.8833,8.26,30,4,3.89,BW,1690754598
240,isangel,-19.55,169.2667,20.06,83,40,2.06,VU,1690754598
241,wlodawa,51.55,23.55,19.9,64,100,1.76,PL,1690754441
242,gavle,60.6745,17.1417,14.63,93,75,0.45,SE,1690754598
243,nanortalik,60.1432,-45.2371,7.02,78,30,0.49,GL,1690754598
244,traralgon,-38.1833,146.5333,10.38,67,1,4.2,AU,1690754299
245,port hedland,-20.3167,118.5667,16.03,31,9,3.6,AU,1690754599
246,auka,14.9333,-83.8333,31.94,65,68,3.05,HN,1690754599
247,husavik,66.0449,-17.3389,10.34,87,97,1.6,IS,1690754600
248,hobyo,5.3505,48.5268,24.58,85,10,11.45,SO,1690754600
249,hasaki,35.7333,140.8333,30.17,82,6,6.86,JP,1690754600
250,avera,33.194,-82.5271,31.03,62,99,1.03,US,1690754600
251,talnakh,69.4865,88.3972,15.67,94,85,3.7,RU,1690754600
252,krasnoselkup,65.7,82.4667,15.54,94,46,5.22,RU,1690754601
253,qiongshan,20.0058,110.3542,26.99,94,0,2.0,CN,1690754601
254,santa lucia,27.9117,-15.5407,20.42,73,20,12.35,ES,1690754601
255,auki,-8.7676,160.7034,24.82,90,100,0.96,SB,1690754602
256,campbell river,50.0163,-125.2446,22.74,60,75,2.57,CA,1690754347
257,cedar city,37.6775,-113.0619,31.33,32,40,14.4,US,1690754418
258,kargil,34.5667,76.1,14.24,55,3,2.67,IN,1690754602
259,mirpur sakro,24.5474,67.6277,28.4,80,77,8.04,PK,1690754603
260,ancud,-41.8697,-73.8203,10.45,93,100,1.22,CL,1690754603
261,yichang,30.7144,111.2847,25.24,94,77,0.86,CN,1690754603
262,ternate,0.8,127.4,26.75,80,86,1.75,ID,1690754603
263,eureka,40.8021,-124.1637,31.53,72,0,4.02,US,1690754408
264,la crosse,43.8014,-91.2396,26.96,56,20,3.6,US,1690754604
265,maceio,-9.6658,-35.7353,24.69,83,20,2.06,BR,1690754421
266,vidim,56.4088,103.1106,15.65,83,37,2.48,RU,1690754604
267,aklavik,68.2191,-135.0107,27.42,32,12,5.09,CA,1690754604
268,paita,-5.0892,-81.1144,23.11,76,0,7.43,PE,1690754605
269,labuhan,-6.8844,112.2051,22.35,83,3,3.76,ID,1690754605
270,progreso,21.2833,-89.6667,29.6,72,94,6.7,MX,1690754605
271,bambous virieux,-20.3428,57.7575,21.14,73,20,1.03,MU,1690754605
272,severo-yeniseyskiy,60.3725,93.0408,14.69,99,100,1.44,RU,1690754606
273,pasighat,28.0667,95.3333,25.57,87,65,0.93,IN,1690754606
274,whitley bay,55.0397,-1.4471,15.76,77,20,2.57,GB,1690754606
275,vanavara,60.34,102.2797,15.99,98,89,2.02,RU,1690754482
276,olafsvik,64.8945,-23.7142,11.1,79,11,3.12,IS,1690754607
277,goba,7.0167,39.9833,11.79,90,27,1.83,ET,1690754607
278,kushima,31.4583,131.2333,25.14,90,98,3.77,JP,1690754608
279,coihaique,-45.5752,-72.0662,5.97,61,40,1.54,CL,1690754608
280,calabar,4.9517,8.322,23.76,97,100,1.2,NG,1690754379
281,jacareacanga,-6.2222,-57.7528,30.54,39,16,0.96,BR,1690754608
282,dingle,10.9995,122.6711,24.44,90,61,2.94,PH,1690754608
283,srednekolymsk,67.45,153.6833,8.76,64,73,3.04,RU,1690754609
284,kaduna,10.5222,7.4383,23.39,90,87,1.61,NG,1690754609
285,kedrovyy,56.1667,91.8167,14.37,96,4,1.95,RU,1690754609
286,petropavlovka,50.6114,105.3196,19.43,78,100,2.02,RU,1690754609
287,mabaruma,8.2,-59.7833,27.29,84,67,2.04,GY,1690754610
288,hamilton,39.1834,-84.5333,31.67,50,9,1.79,US,1690754414
289,kaitangata,-46.2817,169.8464,6.89,75,15,2.28,NZ,1690754610
290,sainte-suzanne,-20.9061,55.6089,20.1,60,0,2.06,RE,1690754610
291,sorsk,54.0033,90.2467,16.17,76,37,2.03,RU,1690754611
292,lompoc,34.6391,-120.4579,35.56,65,20,5.14,US,1690754437
293,ust-ishim,57.6935,71.1665,15.15,98,100,2.03,RU,1690754611
294,oussouye,12.485,-16.5469,27.05,92,100,2.61,SN,1690754612
295,tual,-5.6667,132.75,25.86,82,93,8.64,ID,1690754612
296,sao joao batista,-27.2761,-48.8494,17.9,93,0,0.86,BR,1690754612
297,caratinga,-19.7897,-42.1392,17.52,88,99,0.91,BR,1690754521
298,salinopolis,-0.6136,-47.3561,26.67,81,0,5.26,BR,1690754613
299,tilichiki,60.4667,166.1,12.77,58,97,0.54,RU,1690754613
300,port macquarie,-31.4333,152.9167,16.05,72,4,1.77,AU,1690754400
301,sinnamary,5.3833,-52.95,26.8,83,8,5.39,GF,1690754614
302,millinocket,45.6573,-68.7098,23.06,40,0,4.12,US,1690754614
303,redding,40.5865,-122.3917,36.79,15,0,3.09,US,1690754614
304,port blair,11.6667,92.75,29.02,84,75,6.69,IN,1690754614
305,hay river,60.8156,-115.7999,20.99,68,100,5.14,CA,1690754614
306,kulhudhuffushi,6.6221,73.07,28.13,77,57,5.06,MV,1690754615
307,ndele,8.4109,20.6473,22.39,95,99,1.57,CF,1690754615
308,sangin,32.0728,64.8359,30.73,15,16,2.87,AF,1690754615
309,boende,-0.2167,20.8667,25.05,74,49,1.12,CD,1690754615
310,livani,56.3543,26.1758,14.05,99,26,2.21,LV,1690754616
311,saint-augustin,51.226,-58.6502,13.89,73,99,2.49,CA,1690754616
312,harper,4.375,-7.7169,24.53,88,96,3.79,LR,1690754616
313,diebougou,10.9667,-3.25,26.13,73,47,2.13,BF,1690754616
314,gabu,12.2833,-14.2167,23.03,92,100,2.1,GW,1690754616
315,nuuk,64.1835,-51.7216,4.34,87,100,4.02,GL,1690754617
316,abay,49.6311,72.8539,15.21,63,63,2.97,KZ,1690754617
317,seoul,37.5683,126.9778,26.66,95,75,0.51,KR,1690754406
318,guiren,33.6697,118.1889,24.12,94,97,4.65,CN,1690754515
319,cayenne,4.9333,-52.3333,27.02,78,20,0.51,GF,1690754618
320,aguimes,27.9054,-15.4461,23.14,73,20,12.35,ES,1690754618
321,nantucket,41.2835,-70.0995,23.38,78,75,4.12,US,1690754571
322,port hawkesbury,45.6169,-61.3485,22.17,78,75,5.66,CA,1690754619
323,khash,28.2211,61.2158,26.73,34,1,0.93,IR,1690754619
324,klaksvik,62.2266,-6.589,12.51,92,5,3.55,FO,1690754620
325,guerrero negro,27.9769,-114.0611,27.81,50,14,6.79,MX,1690754326
326,pangai,-19.8,-174.35,23.06,64,75,5.66,TO,1690754620
327,malpe,13.35,74.7167,25.61,87,68,2.92,IN,1690754620
328,caravelas,-17.7125,-39.2481,21.87,73,63,5.18,BR,1690754621
329,skibbereen,51.55,-9.2667,16.17,89,100,8.66,IE,1690754621
330,la palma,33.8464,-118.0467,37.33,63,75,2.57,US,1690754546
331,fort nelson,58.8053,-122.7002,28.86,42,75,5.66,CA,1690754621
332,north bend,43.4065,-124.2243,25.69,60,0,8.23,US,1690754621
333,monroe,43.1501,-77.6831,25.13,47,20,0.45,US,1690754488
334,rocha,-34.4833,-54.3333,12.67,76,98,2.88,UY,1690754622
335,otavalo,0.2333,-78.2667,23.12,72,73,2.87,EC,1690754623
336,banda aceh,5.5577,95.3222,27.13,78,100,6.13,ID,1690754623
337,launceston,-41.45,147.1667,8.22,66,75,7.2,AU,1690754515
338,maralal,1.0968,36.698,16.24,77,34,1.12,KE,1690754623
339,luanda,-8.8368,13.2343,21.0,88,75,2.06,AO,1690754432
340,mount gambier,-37.8333,140.7667,10.54,78,25,3.66,AU,1690754624
341,lorengau,-2.0226,147.2712,26.8,81,100,0.79,PG,1690754624
342,mbala,-8.8402,31.3659,15.3,34,13,2.89,ZM,1690754624
343,matay,28.419,30.7792,28.33,40,0,6.09,EG,1690754624
344,bad windsheim,49.5,10.4167,17.09,74,100,3.55,DE,1690754625
345,batemans bay,-35.7167,150.1833,10.05,63,0,3.25,AU,1690754625
346,road town,18.4167,-64.6167,30.02,74,40,4.63,VG,1690754625
347,ljubovija,44.1894,19.3767,19.11,99,94,1.0,RS,1690754625
348,san rafael,-34.6177,-68.3301,16.96,36,60,2.5,AR,1690754625
349,bourail,-21.5667,165.4833,19.87,64,16,2.52,NC,1690754626
350,mandalgovi,45.7625,106.2708,23.21,39,3,2.09,MN,1690754626
351,chokurdakh,70.6333,147.9167,1.89,95,100,3.85,RU,1690754626
352,saskylakh,71.9167,114.0833,14.16,49,82,5.39,RU,1690754626
353,rio gallegos,-51.6226,-69.2181,2.03,69,0,7.2,AR,1690754626
354,the valley,18.217,-63.0578,30.92,74,40,6.17,AI,1690754627
355,kpandae,8.4689,-0.0113,23.64,96,100,1.1,GH,1690754627
356,touros,-5.1989,-35.4608,25.19,81,12,7.73,BR,1690754627
357,hedaru,-4.5,37.9,17.97,93,3,2.08,TZ,1690754628
358,montepuez,-13.1256,38.9997,16.11,68,0,1.59,MZ,1690754628
359,maarianhamina,60.0973,19.9348,17.12,94,75,4.63,AX,1690754628
360,paka,4.6374,103.4368,25.96,94,100,0.0,MY,1690754253
361,sept-iles,50.2001,-66.3821,21.0,53,75,4.12,CA,1690754566
362,goundam,16.4145,-3.6708,34.46,35,80,4.18,ML,1690754629
363,mityana,0.4175,32.0228,18.01,69,62,0.76,UG,1690754629
364,meadow lake,34.8014,-106.5436,35.64,20,80,4.37,US,1690754354
365,saravan,39.7196,45.6483,15.75,80,10,3.09,AM,1690754629
366,hokitika,-42.7167,170.9667,9.72,76,100,2.0,NZ,1690754629
367,montoro,38.0241,-4.3834,32.21,24,0,3.5,ES,1690754630
368,kavaratti,10.5669,72.642,28.06,77,12,6.95,IN,1690754630
369,aneho,6.2333,1.6,26.11,91,99,4.4,TG,1690754630
370,athni,16.7333,75.0667,22.49,87,100,6.77,IN,1690754630
371,nelson bay,-32.7167,152.15,15.56,95,0,6.26,AU,1690754631
372,ostrovnoy,68.0531,39.5131,13.53,84,53,4.88,RU,1690754631
373,lodwar,3.1191,35.5973,29.69,43,59,4.04,KE,1690754631
374,saint george,37.1041,-113.5841,33.33,29,0,3.09,US,1690754425
375,maniitsoq,65.4167,-52.9,5.28,87,80,4.44,GL,1690754632
376,jurado,7.1053,-77.7641,28.47,80,99,2.09,CO,1690754632
377,presidencia roque saenz pena,-26.7852,-60.4388,21.11,58,2,2.72,AR,1690754633
378,moose factory,51.2585,-80.6094,15.0,72,40,4.63,CA,1690754633
379,ukiah,39.1502,-123.2078,36.35,24,0,4.12,US,1690754571
380,pacific grove,36.6177,-121.9166,31.33,77,21,4.47,US,1690754459
381,dayong,25.0209,118.2898,25.18,96,100,0.6,CN,1690754634
382,halifax,44.6453,-63.5724,23.94,63,78,4.63,CA,1690754571
383,kadhan,24.481,68.9859,27.94,83,3,7.64,PK,1690754634
384,aquiraz,-3.9014,-38.3911,27.32,88,23,5.68,BR,1690754338
385,khandyga,62.6667,135.6,10.14,89,100,2.62,RU,1690754635
386,te anau,-45.4167,167.7167,8.98,90,100,4.17,NZ,1690754635
387,kailua,21.4022,-157.7394,30.04,62,26,1.79,US,1690754635
388,bilibino,68.0546,166.4372,6.73,90,100,1.2,RU,1690754635
389,mildura,-34.2,142.15,10.04,92,0,2.87,AU,1690754636
390,scarborough,54.2797,-0.4044,14.88,87,100,0.89,GB,1690754636
391,dingzhou,38.5131,114.9956,25.06,98,100,3.16,CN,1690754636
392,kruisfontein,-34.0033,24.7314,11.6,71,71,12.52,ZA,1690754637
393,shakhty,47.7091,40.2144,19.79,54,51,1.53,RU,1690754637
394,hualmay,-11.0964,-77.6139,20.89,73,12,3.76,PE,1690754637
395,wajir,1.7471,40.0573,24.48,57,53,7.97,KE,1690754637
396,zeya,53.75,127.2667,20.49,75,80,1.17,RU,1690754638
397,rexburg,43.826,-111.7897,34.73,18,0,5.66,US,1690754638
398,lander,42.833,-108.7307,36.17,16,72,2.35,US,1690754344
399,chincha alta,-13.4099,-76.1323,20.33,75,15,1.77,PE,1690754591
400,viedma,-40.8135,-62.9967,13.8,40,94,4.6,AR,1690754527
401,tynset,62.2759,10.7824,12.79,90,73,2.71,NO,1690754639
402,palmer,42.1584,-72.3287,25.59,49,20,3.6,US,1690754639
403,lensk,60.7253,114.9278,18.4,100,100,0.55,RU,1690754640
404,salalah,17.0151,54.0924,24.42,94,94,3.53,OM,1690754640
405,provideniya,64.3833,-173.3,10.2,93,100,3.13,RU,1690754640
406,nassau,40.7507,-73.5829,27.81,47,20,6.69,US,1690754640
407,pasni,25.2631,63.471,27.65,85,98,4.43,PK,1690754641
408,hami,42.8,93.45,28.18,36,100,5.18,CN,1690754641
409,shenjiamen,29.9576,122.298,28.02,80,40,3.78,CN,1690754641
410,san luis,-33.295,-66.3356,17.48,38,56,6.07,AR,1690754057
411,matata,-37.8833,176.75,10.47,68,0,0.9,NZ,1690754642
412,itarema,-2.9248,-39.9167,25.97,85,5,6.92,BR,1690754642
413,bembereke,10.2283,2.6634,22.31,93,41,1.81,BJ,1690754642
414,riyadh,24.6877,46.7219,33.08,13,65,3.74,SA,1690754643
415,inhambane,-23.865,35.3833,20.82,65,20,8.72,MZ,1690754643
416,san juan,-31.5375,-68.5364,20.13,28,52,1.79,AR,1690754418
417,whitehorse,60.7161,-135.0538,24.43,43,75,1.54,CA,1690754644
418,kembe,4.6228,21.8865,22.01,94,96,1.36,CF,1690754644
419,muroto,33.2833,134.15,27.16,83,100,3.6,JP,1690754644
420,wanning,18.8003,110.3967,27.26,84,100,1.0,CN,1690754645
421,altamont,42.2068,-121.7372,29.87,28,0,3.09,US,1690754645
422,rawson,-43.3002,-65.1023,13.69,42,63,8.37,AR,1690754353
423,sovetskiy,61.3614,63.5842,15.11,69,50,1.93,RU,1690754646
424,tiznit,29.5833,-9.5,30.11,27,10,0.24,MA,1690754646
425,matadi,-5.8167,13.45,21.26,77,5,2.91,CD,1690754646
426,kusa,55.3383,59.4406,16.43,88,95,1.83,RU,1690754647
427,praia da vitoria,38.7333,-27.0667,25.14,88,20,1.73,PT,1690754647
428,gimli,50.6336,-96.9907,25.01,47,2,1.03,CA,1690754617
429,apac,1.9756,32.5386,19.27,89,78,1.12,UG,1690754648
430,la asuncion,11.0333,-63.8628,28.44,75,40,3.9,VE,1690754648
431,savannah bight,16.45,-85.85,28.82,81,41,7.8,HN,1690754648
432,zitlala,17.6333,-99.0833,20.02,72,93,1.85,MX,1690754648
433,rio muerto,27.4167,-110.2333,36.29,36,3,5.82,MX,1690754649
434,belmonte,-15.8631,-38.8828,21.78,89,100,5.03,BR,1690754537
435,nouadhibou,20.931,-17.0347,21.99,88,75,7.72,MR,1690754649
436,moranbah,-22.0016,148.0466,15.03,80,23,5.29,AU,1690754649
437,kayes,14.0,-11.0,27.16,68,100,1.98,ML,1690754650
438,alzamay,55.5562,98.6644,15.43,85,3,1.65,RU,1690754650
439,acapulco,16.8634,-99.8901,31.9,70,75,2.57,MX,1690754650
440,broken hill,-31.95,141.4333,10.08,75,0,2.37,AU,1690754651
441,sheboygan,43.7333,-87.9334,26.3,46,8,2.68,US,1690754425
442,didwana,27.4,74.5667,28.19,76,100,6.37,IN,1690754652
443,ambulu,-8.345,113.6058,20.49,91,84,1.31,ID,1690754652
444,bukachacha,52.9833,116.9167,18.72,83,100,0.41,RU,1690754652
445,grand gaube,-20.0064,57.6608,21.22,72,4,0.45,MU,1690754653
446,havelock,34.8791,-76.9013,29.98,84,40,4.63,US,1690754240
447,warrington,53.3925,-2.5802,17.01,96,75,4.12,GB,1690754552
448,macomer,40.262,8.7699,19.63,77,8,1.57,IT,1690754653
449,cascais,38.6979,-9.4215,20.92,76,20,8.49,PT,1690754653
450,anastacio,-20.4836,-55.8069,25.51,40,0,0.19,BR,1690754500
451,shimoda,34.6667,138.95,29.5,77,67,2.79,JP,1690754654
452,abu samrah,35.3029,37.1841,24.01,75,0,4.8,SY,1690754654
453,nyurba,63.2842,118.3319,14.64,62,0,2.36,RU,1690754655
454,urucara,-2.5364,-57.76,28.95,59,74,1.0,BR,1690754655
455,leningradskiy,69.3833,178.4167,5.22,93,100,3.4,RU,1690754656
456,klyuchi,52.2667,79.1667,18.74,72,0,1.33,RU,1690754656
457,nishihara,26.1842,127.7558,26.81,89,75,6.69,JP,1690754656
458,baiyin,36.5583,104.2081,21.59,66,0,1.73,CN,1690754656
459,carora,10.1755,-70.0827,33.28,41,66,2.85,VE,1690754657
460,purpe,64.4803,76.6897,15.55,94,0,5.51,RU,1690754657
461,cavalcante,-13.7975,-47.4583,24.41,36,95,2.09,BR,1690754657
462,traverse city,44.7631,-85.6206,24.91,41,88,0.45,US,1690754570
463,hammerfest,70.6634,23.6821,11.25,93,75,2.06,NO,1690754658
464,russell,32.3502,-85.1999,25.78,88,0,1.54,US,1690754658
465,elbistan,38.2059,37.1983,20.74,43,0,1.38,TR,1690754658
466,yatou,37.15,122.3833,25.21,92,92,3.67,CN,1690754658
467,patan,27.6667,85.3333,22.21,94,75,0.0,NP,1690754659
468,zelenogorskiy,55.0333,87.0,14.09,99,19,1.94,RU,1690754659
469,hobbs,32.7026,-103.136,35.03,20,0,4.63,US,1690754660
470,urumqi,43.801,87.6005,20.53,40,0,1.0,CN,1690754660
471,danielskuil,-28.1887,23.5395,1.07,55,0,3.35,ZA,1690754660
472,kadoshkino,54.0257,44.4191,13.06,86,87,5.89,RU,1690754660
473,nicoya,10.1483,-85.452,27.18,89,96,1.7,CR,1690754584
474,bastrop,32.7562,-91.8724,38.16,46,0,1.79,US,1690754661
475,japura,-0.3167,102.35,22.39,93,21,1.38,ID,1690754661
476,winnemucca,40.973,-117.7357,35.03,6,20,1.33,US,1690754661
477,aviles,43.5547,-5.9248,19.65,84,0,0.0,ES,1690754661
478,panguipulli,-39.6333,-72.3333,11.39,98,99,0.93,CL,1690754662
479,bilma,18.6853,12.9164,35.64,16,1,2.8,NE,1690754662
480,beringovskiy,63.05,179.3167,9.46,92,100,1.62,RU,1690754662
481,edgewater,28.9889,-80.9023,32.84,75,55,4.06,US,1690754662
482,alofi,-19.0595,-169.9187,21.94,83,99,5.66,NU,1690754663
483,chernyshevskiy,63.0128,112.4714,15.09,70,98,2.62,RU,1690754663
484,inuvik,68.3499,-133.7218,27.48,40,20,3.09,CA,1690754663
485,tazovskiy,67.4667,78.7,7.4,93,10,4.72,RU,1690754458
486,vestmannaeyjar,63.4427,-20.2734,10.97,89,100,2.36,IS,1690754664
487,lazaro cardenas,17.9583,-102.2,31.3,71,100,3.62,MX,1690754664
488,yerbogachen,61.2767,108.0108,17.68,98,97,1.83,RU,1690754664
489,sungairaya,0.7,108.9,24.43,81,65,3.11,ID,1690754664
490,aldan,58.6031,125.3894,16.85,69,89,0.84,RU,1690754665
491,kikwit,-5.041,18.8162,26.94,36,8,0.42,CD,1690754665
492,fairview,40.8126,-73.999,27.56,41,20,6.69,US,1690754665
493,babanka,48.7097,30.4483,19.82,81,100,5.97,UA,1690754665
494,nome,64.5011,-165.4064,12.31,93,100,3.09,US,1690754666
495,cabot,34.9745,-92.0165,38.78,45,0,2.57,US,1690754575
496,rafsanjan,30.4067,55.9939,30.19,15,46,4.46,IR,1690754666
497,hambantota,6.1241,81.1185,25.19,94,20,2.06,LK,1690754666
498,grand-santi,4.25,-54.3833,27.03,73,98,1.02,GF,1690754666
499,sandwick,60.0,-1.25,12.9,94,100,2.06,GB,1690754667
500,qandala,11.472,49.8728,31.86,57,88,3.46,SO,1690754667
501,fukue,32.6881,128.8419,27.95,75,88,4.33,JP,1690754667
502,san pedro,14.35,121.0167,26.57,96,100,1.03,PH,1690754667
503,manzanillo,20.3433,-77.1167,30.29,64,1,2.94,CU,1690754450
504,krasnoarmeysk,51.0239,45.6969,16.14,79,9,3.39,RU,1690754668
505,jian,27.1172,114.9793,25.62,90,100,1.63,CN,1690754668
506,canton,23.1167,113.25,28.82,75,100,2.28,CN,1690754467
507,lata,40.1629,-8.3327,13.28,90,0,1.39,PT,1690754669
508,mogadishu,2.0371,45.3438,24.65,84,1,6.95,SO,1690754469
509,baghdad,33.3406,44.4009,33.95,20,0,0.51,IQ,1690753856
510,aligudarz,33.4006,49.6949,22.86,25,41,1.99,IR,1690754669
511,barwani,22.0333,74.9,25.31,88,94,2.86,IN,1690754506
512,rio grande,-32.035,-52.0986,16.06,83,100,2.27,BR,1690754606
513,korla,41.7597,86.1469,23.7,61,24,1.22,CN,1690754429
514,merauke,-8.4667,140.3333,24.36,83,65,5.72,ID,1690754670
515,atar,20.5169,-13.0499,33.84,32,99,10.58,MR,1690754671
516,suntar,62.1444,117.6319,16.85,67,100,1.11,RU,1690754671
517,brigantine,39.4101,-74.3646,26.16,70,5,0.45,US,1690754671
518,yerkoy,39.6381,34.4672,17.05,70,0,1.59,TR,1690754671
519,mahanoro,-19.9,48.8,19.59,83,51,1.62,MG,1690754673
520,tamworth,52.634,-1.6959,16.63,92,100,8.1,GB,1690754674
521,pakxan,18.3778,103.6601,26.63,99,100,0.54,LA,1690754679
522,mahon,39.8885,4.2658,25.31,88,20,1.54,ES,1690754681
523,sawakin,19.1059,37.3321,32.66,47,63,1.96,SD,1690754688
524,adrar,20.5022,-10.0711,33.38,33,10,4.75,MR,1690754690
525,evinayong,1.4368,10.5512,20.0,99,49,1.37,GQ,1690754690
526,sao paulo de olivenca,-3.3783,-68.8725,29.89,55,87,0.33,BR,1690754690
527,cabo rojo,18.0866,-67.1457,31.61,72,98,1.34,PR,1690754690
528,mawlaik,23.6333,94.4167,25.09,99,99,0.6,MM,1690754691
529,atakpame,7.5333,1.1333,22.29,95,100,0.65,TG,1690754691
530,baruun-urt,46.6806,113.2792,22.43,49,1,3.08,MN,1690754691
531,oksfjord,70.2396,22.3479,13.04,93,91,1.61,NO,1690754692
532,awjilah,29.1081,21.2869,29.23,46,0,5.18,LY,1690754692
533,mumbwa,-14.9783,27.0619,18.05,36,25,2.33,ZM,1690754692
534,berlevag,70.8578,29.0864,11.0,93,100,4.12,NO,1690754693
535,selikhino,50.3672,137.4996,17.69,92,63,2.18,RU,1690754693
536,samana,19.2056,-69.3369,34.12,66,40,2.06,DO,1690754693
537,kununurra,-15.7667,128.7333,21.99,64,75,3.6,AU,1690754693
538,necochea,-38.5473,-58.7368,11.16,68,55,3.56,AR,1690754537
539,raton,36.9034,-104.4391,30.19,22,31,7.44,US,1690754694
540,komsomolskiy,40.4272,71.7189,25.4,50,80,3.09,UZ,1690754694
541,paamiut,61.994,-49.6678,4.06,93,81,7.12,GL,1690754694
542,waitati,-45.75,170.5667,9.89,69,8,2.14,NZ,1690754695
543,chinhoyi,-17.3667,30.2,17.3,39,4,2.17,ZW,1690754688
544,osakarovka,50.565,72.5692,17.22,72,0,3.18,KZ,1690754695
545,langsa,4.4683,97.9683,24.02,97,100,1.16,ID,1690754695
546,meulaboh,4.1363,96.1285,24.17,90,100,1.72,ID,1690754695
547,khandbari,27.3747,87.2039,23.33,92,100,0.87,NP,1690754696
548,okato,-39.2,173.8833,8.71,87,62,2.9,NZ,1690754696
549,moroni,-11.7022,43.2551,24.17,79,39,2.8,KM,1690754696
550,jinchang,38.4953,102.1739,22.46,62,54,0.77,CN,1690754696
